{
"type": "FeatureCollection",
"features": [
{ "type": "Feature", "properties": { "id":"100","SPZDBH": "591069", "SPZD_Name": "大田县水利局1", "PointX": "117.850000", "PointY": "25.690000", "SPZFFW": "222.77.183.67", "Administra": "fjfx_sm", "Password": "123456", "Facility_t": "80", "SBTXH": "0000000000200000000000002954854:0000000000200000000000002641155:202.101.126.249:086598", "SPKZCS": "{\\''ptzEnable\\'': true}", "LEVEL": "电信", "LSDW": "电信", "PSBH": "100", "ZT": "启用" }, "geometry": { "type": "Point", "coordinates": [ 117.850000, 25.690000 ] } }
,
{ "type": "Feature", "properties": { "id":"101","SPZDBH": "591070", "SPZD_Name": "大田县水利局2", "PointX": "117.850000", "PointY": "25.690000", "SPZFFW": "222.77.183.67", "Administra": "fjfx_sm", "Password": "123456", "Facility_t": "80", "SBTXH": "0000000000200000000000002954855:0000000000200000000000002641156:202.101.126.249:086598", "SPKZCS": "{\\''ptzEnable\\'': true}", "LEVEL": "电信", "LSDW": "电信", "PSBH": "100", "ZT": "启用" }, "geometry": { "type": "Point", "coordinates": [ 117.850000, 25.690000 ] } }
,
{ "type": "Feature", "properties": { "id":"102","SPZDBH": "591071", "SPZD_Name": "大田县水利局3", "PointX": "117.850000", "PointY": "25.690000", "SPZFFW": "222.77.183.67", "Administra": "fjfx_sm", "Password": "123456", "Facility_t": "80", "SBTXH": "0000000000200000000000002954856:0000000000200000000000002641157:202.101.126.249:086598", "SPKZCS": "{\\''ptzEnable\\'': true}", "LEVEL": "电信", "LSDW": "电信", "PSBH": "100", "ZT": "启用" }, "geometry": { "type": "Point", "coordinates": [ 117.850000, 25.690000 ] } }
,
{ "type": "Feature", "properties": { "id":"103","SPZDBH": "591072", "SPZD_Name": "大田县水利局4", "PointX": "117.850000", "PointY": "25.690000", "SPZFFW": "222.77.183.67", "Administra": "fjfx_sm", "Password": "123456", "Facility_t": "80", "SBTXH": "0000000000200000000000002954857:0000000000200000000000002641158:202.101.126.249:086598", "SPKZCS": "{\\''ptzEnable\\'': true}", "LEVEL": "电信", "LSDW": "电信", "PSBH": "100", "ZT": "启用" }, "geometry": { "type": "Point", "coordinates": [ 117.850000, 25.690000 ] } }
,
{ "type": "Feature", "properties": { "id":"104","SPZDBH": "591073", "SPZD_Name": "华兴乡水利局监控", "PointX": "117.890000", "PointY": "25.690000", "SPZFFW": "222.77.183.67", "Administra": "fjfx_sm", "Password": "123456", "Facility_t": "80", "SBTXH": "200000000000003244976:200000000000002941198:202.101.126.249:086598", "SPKZCS": "{\\''ptzEnable\\'': true}", "LEVEL": "电信", "LSDW": "电信", "PSBH": "100", "ZT": "启用" }, "geometry": { "type": "Point", "coordinates": [ 117.890000, 25.690000 ] } }
,
{ "type": "Feature", "properties": { "id":"105","SPZDBH": "591074", "SPZD_Name": "建宁县斗埕电站高清", "PointX": "116.860000", "PointY": "26.870000", "SPZFFW": "222.77.183.67", "Administra": "fjfx_sm", "Password": "123456", "Facility_t": "80", "SBTXH": "0000000000200000000000003014905:0000000000200000000000002701213:202.101.126.249:086598", "SPKZCS": "{\\''ptzEnable\\'': true}", "LEVEL": "电信", "LSDW": "电信", "PSBH": "100", "ZT": "启用" }, "geometry": { "type": "Point", "coordinates": [ 116.860000, 26.870000 ] } }
,
{ "type": "Feature", "properties": { "id":"106","SPZDBH": "591075", "SPZD_Name": "建宁县均口镇政府旁高清", "PointX": "116.800000", "PointY": "26.660000", "SPZFFW": "222.77.183.67", "Administra": "fjfx_sm", "Password": "123456", "Facility_t": "80", "SBTXH": "0000000000200000000000003014907:0000000000200000000000002701215:202.101.126.249:086598", "SPKZCS": "{\\''ptzEnable\\'': true}", "LEVEL": "电信", "LSDW": "电信", "PSBH": "100", "ZT": "启用" }, "geometry": { "type": "Point", "coordinates": [ 116.800000, 26.660000 ] } }
,
{ "type": "Feature", "properties": { "id":"107","SPZDBH": "591076", "SPZD_Name": "建宁县水文站旁", "PointX": "116.850000", "PointY": "26.830000", "SPZFFW": "222.77.183.67", "Administra": "fjfx_sm", "Password": "123456", "Facility_t": "80", "SBTXH": "0000000000200000000000003014904:0000000000200000000000002701212:202.101.126.249:086598", "SPKZCS": "{\\''ptzEnable\\'': true}", "LEVEL": "电信", "LSDW": "电信", "PSBH": "100", "ZT": "启用" }, "geometry": { "type": "Point", "coordinates": [ 116.850000, 26.830000 ] } }
,
{ "type": "Feature", "properties": { "id":"108","SPZDBH": "591077", "SPZD_Name": "建宁县溪口卫生院墙上高清", "PointX": "116.840000", "PointY": "26.840000", "SPZFFW": "222.77.183.67", "Administra": "fjfx_sm", "Password": "123456", "Facility_t": "80", "SBTXH": "0000000000200000000000003014906:0000000000200000000000002701214:202.101.126.249:086598", "SPKZCS": "{\\''ptzEnable\\'': true}", "LEVEL": "电信", "LSDW": "电信", "PSBH": "100", "ZT": "启用" }, "geometry": { "type": "Point", "coordinates": [ 116.840000, 26.840000 ] } }
,
{ "type": "Feature", "properties": { "id":"110","SPZDBH": "591078", "SPZD_Name": "建设镇水利局监控", "PointX": "117.790000", "PointY": "25.980000", "SPZFFW": "222.77.183.67", "Administra": "fjfx_sm", "Password": "123456", "Facility_t": "80", "SBTXH": "200000000000003244975:200000000000002941197:202.101.126.249:086598", "SPKZCS": "{\\''ptzEnable\\'': true}", "LEVEL": "电信", "LSDW": "电信", "PSBH": "100", "ZT": "启用" }, "geometry": { "type": "Point", "coordinates": [ 117.790000, 25.980000 ] } }
,
{ "type": "Feature", "properties": { "id":"111","SPZDBH": "591079", "SPZD_Name": "均溪镇水利局监控", "PointX": "117.850000", "PointY": "25.690000", "SPZFFW": "222.77.183.67", "Administra": "fjfx_sm", "Password": "123456", "Facility_t": "80", "SBTXH": "200000000000003244977:200000000000002941196:202.101.126.249:086598", "SPKZCS": "{\\''ptzEnable\\'': true}", "LEVEL": "电信", "LSDW": "电信", "PSBH": "100", "ZT": "启用" }, "geometry": { "type": "Point", "coordinates": [ 117.850000, 25.690000 ] } }
,
{ "type": "Feature", "properties": { "id":"112","SPZDBH": "591080", "SPZD_Name": "三明梅列区水文站", "PointX": "117.640000", "PointY": "26.280000", "SPZFFW": "222.77.183.67", "Administra": "fjfx_sm", "Password": "123456", "Facility_t": "80", "SBTXH": "0000000000000000000000000004885:0000000000000000000000000002216:222.77.183.63:086591", "SPKZCS": "{\\''ptzEnable\\'': true}", "LEVEL": "电信", "LSDW": "电信", "PSBH": "100", "ZT": "启用" }, "geometry": { "type": "Point", "coordinates": [ 117.640000, 26.280000 ] } }
,
{ "type": "Feature", "properties": { "id":"113","SPZDBH": "591081", "SPZD_Name": "三明安砂水库1", "PointX": "117.000000", "PointY": "26.020000", "SPZFFW": "222.77.183.67", "Administra": "fjfx_sm", "Password": "123456", "Facility_t": "80", "SBTXH": "0000000000200000000000001024547:0000000000200000000000000921399:222.77.183.65:086591", "SPKZCS": "{\\''ptzEnable\\'': true}", "LEVEL": "电信", "LSDW": "电信", "PSBH": "100", "ZT": "启用" }, "geometry": { "type": "Point", "coordinates": [ 117.000000, 26.020000 ] } }
,
{ "type": "Feature", "properties": { "id":"114","id":"100","SPZDBH": "591082", "SPZD_Name": "三明安砂水库2", "PointX": "117.000000", "PointY": "26.030000", "SPZFFW": "222.77.183.67", "Administra": "fjfx_sm", "Password": "123456", "Facility_t": "80", "SBTXH": "0000000000200000000000001024548:0000000000200000000000000921399:222.77.183.65:086591", "SPKZCS": "{\\''ptzEnable\\'': true}", "LEVEL": "电信", "LSDW": "电信", "PSBH": "100", "ZT": "启用" }, "geometry": { "type": "Point", "coordinates": [ 117.000000, 26.030000 ] } }
,
{ "type": "Feature", "properties": { "id":"115","SPZDBH": "591083", "SPZD_Name": "三明池潭水库1", "PointX": "117.040000", "PointY": "26.790000", "SPZFFW": "222.77.183.67", "Administra": "fjfx_sm", "Password": "123456", "Facility_t": "80", "SBTXH": "0000000000200000000000001024545:0000000000200000000000000921398:222.77.183.164:086591", "SPKZCS": "{\\''ptzEnable\\'': true}", "LEVEL": "电信", "LSDW": "电信", "PSBH": "100", "ZT": "启用" }, "geometry": { "type": "Point", "coordinates": [ 117.040000, 26.790000 ] } }
,
{ "type": "Feature", "properties": { "id":"116","SPZDBH": "591084", "SPZD_Name": "三明池潭水库2", "PointX": "117.040000", "PointY": "26.800000", "SPZFFW": "222.77.183.67", "Administra": "fjfx_sm", "Password": "123456", "Facility_t": "80", "SBTXH": "0000000000200000000000001024546:0000000000200000000000000921398:222.77.183.164:086591", "SPKZCS": "{\\''ptzEnable\\'': true}", "LEVEL": "电信", "LSDW": "电信", "PSBH": "100", "ZT": "启用" }, "geometry": { "type": "Point", "coordinates": [ 117.040000, 26.800000 ] } }
,
{ "type": "Feature", "properties": { "id":"117","SPZDBH": "591085", "SPZD_Name": "三明尤溪水东水库A", "PointX": "118.220000", "PointY": "26.170000", "SPZFFW": "222.77.183.67", "Administra": "fjfx_sm", "Password": "123456", "Facility_t": "80", "SBTXH": "0000000000200000000000001025234:0000000000200000000000000931326:222.77.183.63:086591", "SPKZCS": "{\\''ptzEnable\\'': true}", "LEVEL": "电信", "LSDW": "电信", "PSBH": "100", "ZT": "启用" }, "geometry": { "type": "Point", "coordinates": [ 118.220000, 26.170000 ] } }
,
{ "type": "Feature", "properties": { "id":"118","SPZDBH": "591086", "SPZD_Name": "三明尤溪水东水库B", "PointX": "118.200000", "PointY": "26.170000", "SPZFFW": "222.77.183.67", "Administra": "fjfx_sm", "Password": "123456", "Facility_t": "80", "SBTXH": "0000000000200000000000001025235:0000000000200000000000000931326:222.77.183.63:086591", "SPKZCS": "{\\''ptzEnable\\'': true}", "LEVEL": "电信", "LSDW": "电信", "PSBH": "100", "ZT": "启用" }, "geometry": { "type": "Point", "coordinates": [ 118.200000, 26.170000 ] } }
,
{ "type": "Feature", "properties": { "id":"119","SPZDBH": "591087", "SPZD_Name": "泰宁县水利局杉城镇百竹园发电站高清探头", "PointX": "117.150000", "PointY": "26.880000", "SPZFFW": "222.77.183.67", "Administra": "fjfx_sm", "Password": "123456", "Facility_t": "80", "SBTXH": "0000000000200000000000003014901:0000000000200000000000002701207:202.101.126.249:086598", "SPKZCS": "{\\''ptzEnable\\'': true}", "LEVEL": "电信", "LSDW": "电信", "PSBH": "100", "ZT": "启用" }, "geometry": { "type": "Point", "coordinates": [ 117.150000, 26.880000 ] } }
,
{ "type": "Feature", "properties": { "id":"120","SPZDBH": "591088", "SPZD_Name": "泰宁县水利局杉城镇国中百汇对面巷口高清探头", "PointX": "117.180000", "PointY": "26.900000", "SPZFFW": "222.77.183.67", "Administra": "fjfx_sm", "Password": "123456", "Facility_t": "80", "SBTXH": "0000000000200000000000003014903:0000000000200000000000002701209:202.101.126.249:086598", "SPKZCS": "{\\''ptzEnable\\'': true}", "LEVEL": "电信", "LSDW": "电信", "PSBH": "100", "ZT": "启用" }, "geometry": { "type": "Point", "coordinates": [ 117.180000, 26.900000 ] } }
,
{ "type": "Feature", "properties": { "id":"100","SPZDBH": "591089", "SPZD_Name": "泰宁县水利局杉城镇洋川北溪三级发电站高清探头", "PointX": "117.160000", "PointY": "26.970000", "SPZFFW": "222.77.183.67", "Administra": "fjfx_sm", "Password": "123456", "Facility_t": "80", "SBTXH": "0000000000200000000000003014902:0000000000200000000000002701208:202.101.126.249:086598", "SPKZCS": "{\\''ptzEnable\\'': true}", "LEVEL": "电信", "LSDW": "电信", "PSBH": "100", "ZT": "启用" }, "geometry": { "type": "Point", "coordinates": [ 117.160000, 26.970000 ] } }
,
{ "type": "Feature", "properties": { "id":"100","SPZDBH": "591090", "SPZD_Name": "泰宁县水利局杉城镇中行对面河边高清探头", "PointX": "117.180000", "PointY": "26.900000", "SPZFFW": "222.77.183.67", "Administra": "fjfx_sm", "Password": "123456", "Facility_t": "80", "SBTXH": "0000000000200000000000003014900:0000000000200000000000002701206:202.101.126.249:086598", "SPKZCS": "{\\''ptzEnable\\'': true}", "LEVEL": "电信", "LSDW": "电信", "PSBH": "100", "ZT": "启用" }, "geometry": { "type": "Point", "coordinates": [ 117.180000, 26.900000 ] } }
,
{ "type": "Feature", "properties": { "id":"100","SPZDBH": "591091", "SPZD_Name": "泰宁县水利局新桥水库管理站高清探头", "PointX": "117.110000", "PointY": "27.040000", "SPZFFW": "222.77.183.67", "Administra": "fjfx_sm", "Password": "123456", "Facility_t": "80", "SBTXH": "0000000000200000000000003014897:0000000000200000000000002701203:202.101.126.249:086598", "SPKZCS": "{\\''ptzEnable\\'': true}", "LEVEL": "电信", "LSDW": "电信", "PSBH": "100", "ZT": "启用" }, "geometry": { "type": "Point", "coordinates": [ 117.110000, 27.040000 ] } }
,
{ "type": "Feature", "properties": { "id":"100","SPZDBH": "591092", "SPZD_Name": "泰宁县水利局朱口镇蒋溪水库高清探头", "PointX": "117.260000", "PointY": "26.990000", "SPZFFW": "222.77.183.67", "Administra": "fjfx_sm", "Password": "123456", "Facility_t": "80", "SBTXH": "0000000000200000000000003014899:0000000000200000000000002701205:202.101.126.249:086598", "SPKZCS": "{\\''ptzEnable\\'': true}", "LEVEL": "电信", "LSDW": "电信", "PSBH": "100", "ZT": "启用" }, "geometry": { "type": "Point", "coordinates": [ 117.260000, 26.990000 ] } }
,
{ "type": "Feature", "properties": { "id":"100","SPZDBH": "591093", "SPZD_Name": "泰宁县水利局朱口镇朱溪河高清探头", "PointX": "117.260000", "PointY": "26.980000", "SPZFFW": "222.77.183.67", "Administra": "fjfx_sm", "Password": "123456", "Facility_t": "80", "SBTXH": "0000000000200000000000003014898:0000000000200000000000002701204:202.101.126.249:086598", "SPKZCS": "{\\''ptzEnable\\'': true}", "LEVEL": "电信", "LSDW": "电信", "PSBH": "100", "ZT": "启用" }, "geometry": { "type": "Point", "coordinates": [ 117.260000, 26.980000 ] } }
,
{ "type": "Feature", "properties": { "id":"100","SPZDBH": "591094", "SPZD_Name": "桃源镇水利局监控", "PointX": "117.580000", "PointY": "25.780000", "SPZFFW": "222.77.183.67", "Administra": "fjfx_sm", "Password": "123456", "Facility_t": "80", "SBTXH": "200000000000003244974:200000000000002941199:202.101.126.249:086598", "SPKZCS": "{\\''ptzEnable\\'': true}", "LEVEL": "电信", "LSDW": "电信", "PSBH": "100", "ZT": "启用" }, "geometry": { "type": "Point", "coordinates": [ 117.580000, 25.780000 ] } }
,
{ "type": "Feature", "properties": { "id":"100","SPZDBH": "591097", "SPZD_Name": "斑竹溪", "PointX": "117.680000", "PointY": "26.310000", "SPZFFW": "58.22.99.5", "Administra": "smslfx", "Password": "smslfx", "Facility_t": "8283", "SBTXH": "D84F645455815A4566C1FA40FA4A0F68|00000700A", "SPKZCS": "{\\''ptzEnable\\'': true}", "LEVEL": "联通", "LSDW": "联通", "PSBH": "100", "ZT": "启用" }, "geometry": { "type": "Point", "coordinates": [ 117.680000, 26.310000 ] } }
,
{ "type": "Feature", "properties": { "id":"100","SPZDBH": "591098", "SPZD_Name": "三明防汛办_五路桥头", "PointX": "117.640000", "PointY": "26.280000", "SPZFFW": "58.22.99.5", "Administra": "smslfx", "Password": "smslfx", "Facility_t": "8283", "SBTXH": "DE6EC97F1440217DB434F63F1F8A11EE|00000700A", "SPKZCS": "{\\''ptzEnable\\'': true}", "LEVEL": "联通", "LSDW": "联通", "PSBH": "100", "ZT": "启用" }, "geometry": { "type": "Point", "coordinates": [ 117.640000, 26.280000 ] } }
,
{ "type": "Feature", "properties": { "id":"100","SPZDBH": "591099", "SPZD_Name": "陈大防汛监控", "PointX": "117.650000", "PointY": "26.310000", "SPZFFW": "58.22.99.5", "Administra": "smslfx", "Password": "smslfx", "Facility_t": "8283", "SBTXH": "89351D88E1757F271B2F6A022897C949|00000700A002", "SPKZCS": "{\\''ptzEnable\\'': true}", "LEVEL": "联通", "LSDW": "联通", "PSBH": "100", "ZT": "启用" }, "geometry": { "type": "Point", "coordinates": [ 117.650000, 26.310000 ] } }
,
{ "type": "Feature", "properties": { "id":"100","SPZDBH": "591100", "SPZD_Name": "梅列大桥防汛监控", "PointX": "117.630000", "PointY": "26.270000", "SPZFFW": "58.22.99.5", "Administra": "smslfx", "Password": "smslfx", "Facility_t": "8283", "SBTXH": "032C5E515E0180BC580587D650151500|00000700A002", "SPKZCS": "{\\''ptzEnable\\'': true}", "LEVEL": "联通", "LSDW": "联通", "PSBH": "100", "ZT": "启用" }, "geometry": { "type": "Point", "coordinates": [ 117.630000, 26.270000 ] } }
,
{ "type": "Feature", "properties": { "id":"100","SPZDBH": "591101", "SPZD_Name": "梅列大桥雅藏园防汛监控", "PointX": "117.630000", "PointY": "26.270000", "SPZFFW": "58.22.99.5", "Administra": "smslfx", "Password": "smslfx", "Facility_t": "8283", "SBTXH": "7C244C034FD71FAD73791C9D60C5E090|00000700A002", "SPKZCS": "{\\''ptzEnable\\'': true}", "LEVEL": "联通", "LSDW": "联通", "PSBH": "100", "ZT": "启用" }, "geometry": { "type": "Point", "coordinates": [ 117.630000, 26.270000 ] } }
,
{ "type": "Feature", "properties": { "id":"100","SPZDBH": "591102", "SPZD_Name": "清流防汛办", "PointX": "116.810000", "PointY": "26.170000", "SPZFFW": "58.22.99.5", "Administra": "smslfx", "Password": "smslfx", "Facility_t": "8283", "SBTXH": "81A7C2A249CB9C282140F423B7FC59DC|00000700A001", "SPKZCS": "{\\''ptzEnable\\'': true}", "LEVEL": "联通", "LSDW": "联通", "PSBH": "100", "ZT": "启用" }, "geometry": { "type": "Point", "coordinates": [ 116.810000, 26.170000 ] } }
,
{ "type": "Feature", "properties": { "id":"100","SPZDBH": "591103", "SPZD_Name": "三元防汛办", "PointX": "117.610000", "PointY": "26.230000", "SPZFFW": "58.22.99.5", "Administra": "smslfx", "Password": "smslfx", "Facility_t": "8283", "SBTXH": "8ECEED8157EDBE9268130BD9159DD260|00000700A000", "SPKZCS": "{\\''ptzEnable\\'': true}", "LEVEL": "联通", "LSDW": "联通", "PSBH": "100", "ZT": "启用" }, "geometry": { "type": "Point", "coordinates": [ 117.610000, 26.230000 ] } }
,
{ "type": "Feature", "properties": { "id":"100","SPZDBH": "591104", "SPZD_Name": "三元_三元中山公园内侧路口", "PointX": "117.610000", "PointY": "26.240000", "SPZFFW": "58.22.99.5", "Administra": "smslfx", "Password": "smslfx", "Facility_t": "8283", "SBTXH": "D8F28D8E378A30B4A9A1733648ECAE5E|00000700A000", "SPKZCS": "{\\''ptzEnable\\'': true}", "LEVEL": "联通", "LSDW": "联通", "PSBH": "100", "ZT": "启用" }, "geometry": { "type": "Point", "coordinates": [ 117.610000, 26.240000 ] } }
,
{ "type": "Feature", "properties": { "id":"100","SPZDBH": "591105", "SPZD_Name": "三元_三元中山公园内侧路口2", "PointX": "117.610000", "PointY": "26.240000", "SPZFFW": "58.22.99.5", "Administra": "smslfx", "Password": "smslfx", "Facility_t": "8283", "SBTXH": "475503FEA60E3AC8A372C77765642C81|00000700A000", "SPKZCS": "{\\''ptzEnable\\'': true}", "LEVEL": "联通", "LSDW": "联通", "PSBH": "100", "ZT": "启用" }, "geometry": { "type": "Point", "coordinates": [ 117.610000, 26.240000 ] } }
,
{ "type": "Feature", "properties": { "id":"100","SPZDBH": "591106", "SPZD_Name": "台江防汛办", "PointX": "117.600000", "PointY": "26.230000", "SPZFFW": "58.22.99.5", "Administra": "smslfx", "Password": "smslfx", "Facility_t": "8283", "SBTXH": "123AEB191CC551E163334520B6B2257B|00000700A000", "SPKZCS": "{\\''ptzEnable\\'': true}", "LEVEL": "联通", "LSDW": "联通", "PSBH": "100", "ZT": "启用" }, "geometry": { "type": "Point", "coordinates": [ 117.600000, 26.230000 ] } }
,
{ "type": "Feature", "properties": { "id":"100","SPZDBH": "591107", "SPZD_Name": "建宁县易淹县城区河东排涝站", "PointX": "116.840000", "PointY": "26.830000", "SPZFFW": "58.22.99.5", "Administra": "smslfx", "Password": "smslfx", "Facility_t": "8283", "SBTXH": "D350F8C75C0E02785EA53099B5E54416|00000B008005", "SPKZCS": "{\\''ptzEnable\\'': true}", "LEVEL": "联通", "LSDW": "联通", "PSBH": "100", "ZT": "启用" }, "geometry": { "type": "Point", "coordinates": [ 116.840000, 26.830000 ] } }
,
{ "type": "Feature", "properties": { "id":"100","SPZDBH": "591108", "SPZD_Name": "建宁县易淹县城区下坊排涝站", "PointX": "116.620000", "PointY": "26.730000", "SPZFFW": "58.22.99.5", "Administra": "smslfx", "Password": "smslfx", "Facility_t": "8283", "SBTXH": "365375ADB6CC5C9E216994AD668C5287|00000B008005", "SPKZCS": "{\\''ptzEnable\\'': true}", "LEVEL": "联通", "LSDW": "联通", "PSBH": "100", "ZT": "启用" }, "geometry": { "type": "Point", "coordinates": [ 116.620000, 26.730000 ] } }
,
{ "type": "Feature", "properties": { "SPZDBH": "591109", "SPZD_Name": "将乐县易淹县城区二桥上游", "PointX": "117.480000", "PointY": "26.730000", "SPZFFW": "58.22.99.5", "Administra": "smslfx", "Password": "smslfx", "Facility_t": "8283", "SBTXH": "43ABD825DDF3E147CF36FF9A707A81B5|00000B008003", "SPKZCS": "{\\''ptzEnable\\'': true}", "LEVEL": "联通", "LSDW": "联通", "PSBH": "100", "ZT": "启用" }, "geometry": { "type": "Point", "coordinates": [ 117.480000, 26.730000 ] } }
,
{ "type": "Feature", "properties": { "SPZDBH": "591110", "SPZD_Name": "将乐县易淹县城区上河洲公园", "PointX": "117.480000", "PointY": "26.730000", "SPZFFW": "58.22.99.5", "Administra": "smslfx", "Password": "smslfx", "Facility_t": "8283", "SBTXH": "BCEC0B915F3382A3A97492E32FD8DD46|00000B008003", "SPKZCS": "{\\''ptzEnable\\'': true}", "LEVEL": "联通", "LSDW": "联通", "PSBH": "100", "ZT": "启用" }, "geometry": { "type": "Point", "coordinates": [ 117.480000, 26.730000 ] } }
,
{ "type": "Feature", "properties": { "SPZDBH": "591111", "SPZD_Name": "将乐县易淹县城区水南排涝站", "PointX": "117.470000", "PointY": "26.720000", "SPZFFW": "58.22.99.5", "Administra": "smslfx", "Password": "smslfx", "Facility_t": "8283", "SBTXH": "E5405798BF907CAFC28A3E13DF3861EC|00000B008003", "SPKZCS": "{\\''ptzEnable\\'': true}", "LEVEL": "联通", "LSDW": "联通", "PSBH": "100", "ZT": "启用" }, "geometry": { "type": "Point", "coordinates": [ 117.470000, 26.720000 ] } }
,
{ "type": "Feature", "properties": { "SPZDBH": "591112", "SPZD_Name": "宁化县易淹县城区上游", "PointX": "116.650000", "PointY": "26.270000", "SPZFFW": "58.22.99.5", "Administra": "smslfx", "Password": "smslfx", "Facility_t": "8283", "SBTXH": "1690EA00FB85E6244E6464D174912E38|00000B008004", "SPKZCS": "{\\''ptzEnable\\'': true}", "LEVEL": "联通", "LSDW": "联通", "PSBH": "100", "ZT": "启用" }, "geometry": { "type": "Point", "coordinates": [ 116.650000, 26.270000 ] } }
,
{ "type": "Feature", "properties": { "SPZDBH": "591113", "SPZD_Name": "宁化县易淹县城区下游", "PointX": "116.660000", "PointY": "26.250000", "SPZFFW": "58.22.99.5", "Administra": "smslfx", "Password": "smslfx", "Facility_t": "8283", "SBTXH": "5B1CB109EB1E85D50DEA2366A8205192|00000B008004", "SPKZCS": "{\\''ptzEnable\\'': true}", "LEVEL": "联通", "LSDW": "联通", "PSBH": "100", "ZT": "启用" }, "geometry": { "type": "Point", "coordinates": [ 116.660000, 26.250000 ] } }
,
{ "type": "Feature", "properties": { "SPZDBH": "591114", "SPZD_Name": "三明东牙溪水库大坝", "PointX": "117.640000", "PointY": "26.190000", "SPZFFW": "58.22.99.5", "Administra": "smslfx", "Password": "smslfx", "Facility_t": "8283", "SBTXH": "6B4D4A563A3AEA7A8F2EBDADE603D9B2|00000B008002", "SPKZCS": "{\\''ptzEnable\\'': true}", "LEVEL": "联通", "LSDW": "联通", "PSBH": "100", "ZT": "启用" }, "geometry": { "type": "Point", "coordinates": [ 117.640000, 26.190000 ] } }
,
{ "type": "Feature", "properties": { "SPZDBH": "591115", "SPZD_Name": "三明东牙溪水库全库景", "PointX": "117.640000", "PointY": "26.180000", "SPZFFW": "58.22.99.5", "Administra": "smslfx", "Password": "smslfx", "Facility_t": "8283", "SBTXH": "D97CC2E076EC55FEBB9E3F61145031F2|00000B008002", "SPKZCS": "{\\''ptzEnable\\'': true}", "LEVEL": "联通", "LSDW": "联通", "PSBH": "100", "ZT": "启用" }, "geometry": { "type": "Point", "coordinates": [ 117.640000, 26.180000 ] } }
,
{ "type": "Feature", "properties": { "SPZDBH": "591116", "SPZD_Name": "泰宁县易淹县城区湖滨排涝站", "PointX": "117.150000", "PointY": "26.880000", "SPZFFW": "58.22.99.5", "Administra": "smslfx", "Password": "smslfx", "Facility_t": "8283", "SBTXH": "5D376630B4D6C5B3D9A6002A931CBF02|00000B008006", "SPKZCS": "{\\''ptzEnable\\'': true}", "LEVEL": "联通", "LSDW": "联通", "PSBH": "100", "ZT": "启用" }, "geometry": { "type": "Point", "coordinates": [ 117.150000, 26.880000 ] } }
,
{ "type": "Feature", "properties": { "SPZDBH": "591117", "SPZD_Name": "泰宁县易淹县城区水位站监控", "PointX": "117.180000", "PointY": "26.900000", "SPZFFW": "58.22.99.5", "Administra": "smslfx", "Password": "smslfx", "Facility_t": "8283", "SBTXH": "876C08CD569895439C66D1BC018C2B26|00000B008006", "SPKZCS": "{\\''ptzEnable\\'': true}", "LEVEL": "联通", "LSDW": "联通", "PSBH": "100", "ZT": "启用" }, "geometry": { "type": "Point", "coordinates": [ 117.180000, 26.900000 ] } }
,
{ "type": "Feature", "properties": { "SPZDBH": "591118", "SPZD_Name": "尤溪街面水库全库景", "PointX": "118.050000", "PointY": "25.920000", "SPZFFW": "58.22.99.5", "Administra": "smslfx", "Password": "smslfx", "Facility_t": "8283", "SBTXH": "AF8630A81E0B518F9DC27C11E8FA86A3|00000B008000", "SPKZCS": "{\\''ptzEnable\\'': true}", "LEVEL": "联通", "LSDW": "联通", "PSBH": "100", "ZT": "启用" }, "geometry": { "type": "Point", "coordinates": [ 118.050000, 25.920000 ] } }
,
{ "type": "Feature", "properties": { "SPZDBH": "591119", "SPZD_Name": "尤溪街面水库溢洪道", "PointX": "118.050000", "PointY": "25.930000", "SPZFFW": "58.22.99.5", "Administra": "smslfx", "Password": "smslfx", "Facility_t": "8283", "SBTXH": "43A664B05325BBE63EC08E9F91FCA613|00000B008000", "SPKZCS": "{\\''ptzEnable\\'': true}", "LEVEL": "联通", "LSDW": "联通", "PSBH": "100", "ZT": "启用" }, "geometry": { "type": "Point", "coordinates": [ 118.050000, 25.930000 ] } }
,
{ "type": "Feature", "properties": { "SPZDBH": "591121", "SPZD_Name": "尤溪柳塘水库全库景", "PointX": "117.920000", "PointY": "26.200000", "SPZFFW": "58.22.99.5", "Administra": "smslfx", "Password": "smslfx", "Facility_t": "8283", "SBTXH": "443D4ECCDAB2DE8EC1A251E5ACA992CE|00000B008001", "SPKZCS": "{\\''ptzEnable\\'': true}", "LEVEL": "联通", "LSDW": "联通", "PSBH": "100", "ZT": "启用" }, "geometry": { "type": "Point", "coordinates": [ 117.920000, 26.200000 ] } }
,
{ "type": "Feature", "properties": { "SPZDBH": "591122", "SPZD_Name": "尤溪柳塘水库溢洪道", "PointX": "117.930000", "PointY": "26.210000", "SPZFFW": "58.22.99.5", "Administra": "smslfx", "Password": "smslfx", "Facility_t": "8283", "SBTXH": "338AF5EBACB69041FD2C919229779A14|00000B008001", "SPKZCS": "{\\''ptzEnable\\'': true}", "LEVEL": "联通", "LSDW": "联通", "PSBH": "100", "ZT": "启用" }, "geometry": { "type": "Point", "coordinates": [ 117.930000, 26.210000 ] } }

]
}
